{
    "link": "https://www.tripadvisor.com/Hotels-g187463-oa30-Palma_de_Mallorca_Majorca_Balearic_Islands-Hotels.html",
    "total_pages": 8,
    "current_page": 2,
    "total_items_count": 216,
    "items_count": 30,
    "results": [
        {
            "id": 305578,
            "name": "Puro Hotel Palma",
            "link": "https://www.tripadvisor.com/Hotel_Review-g187463-d305578-Reviews-Puro_Hotel_Palma-Palma_de_Mallorca_Majorca_Balearic_Islands.html",
            "reviews": 1131,
            "rating": 4.5,
            "price_range_usd": {
                "min": 175,
                "max": 331
            },
            "phone": "+34 971 42 54 50",
            "address": "Calle Montenegro 10, 07012 Palma de Mallorca, Majorca Spain",
            "detailed_address": {
                "street": "Calle Montenegro 10",
                "city": "Palma de Mallorca",
                "postal_code": "07012",
                "state": null,
                "country": "Spain"
            },
            "ranking": {
                "current_rank": 29,
                "total": 95
            },
            "featured_image": null,
            "latitude": 39.569477,
            "longitude": 2.645186,
            "amenities": [
                "Free Wifi",
                "Breakfast included",
                "Restaurant",
                "Room service",
                "Spa"
            ],
            "providers": []
        },
        {
            "id": 6479649,
            "name": "Posada Terra Santa",
            "link": "https://www.tripadvisor.com/Hotel_Review-g187463-d6479649-Reviews-Posada_Terra_Santa-Palma_de_Mallorca_Majorca_Balearic_Islands.html",
            "reviews": 1695,
            "rating": 5,
            "price_range_usd": {
                "min": 248,
                "max": 391
            },
            "phone": "+34 971 21 47 42",
            "address": "Carrer de la Posada de Terra Santa 5, 07001 Palma de Mallorca, Majorca Spain",
            "detailed_address": {
                "street": "Carrer de la Posada de Terra Santa 5",
                "city": "Palma de Mallorca",
                "postal_code": "07001",
                "state": null,
                "country": "Spain"
            },
            "ranking": {
                "current_rank": 2,
                "total": 95
            },
            "featured_image": null,
            "latitude": 39.569897,
            "longitude": 2.653384,
            "amenities": [
                "Free Wifi",
                "Breakfast included",
                "Pool",
                "Outdoor pool",
                "Restaurant"
            ],
            "providers": []
        },
        {
            "id": 234557,
            "name": "Castillo Hotel Son Vida, a Luxury Collection Hotel, Mallorca",
            "link": "https://www.tripadvisor.com/Hotel_Review-g187463-d234557-Reviews-Castillo_Hotel_Son_Vida_a_Luxury_Collection_Hotel_Mallorca-Palma_de_Mallorca_Majorca_Ba.html",
            "reviews": 1203,
            "rating": 4.5,
            "price_range_usd": {
                "min": 322,
                "max": 513
            },
            "phone": "+34 971 49 34 93",
            "address": "C/raixa 2 Urbanizacion Son Vida, 07013 Palma de Mallorca, Majorca Spain",
            "detailed_address": {
                "street": "C/raixa 2, Urbanizacion Son Vida",
                "city": "Palma de Mallorca",
                "postal_code": "07013",
                "state": null,
                "country": "Spain"
            },
            "ranking": {
                "current_rank": 34,
                "total": 95
            },
            "featured_image": null,
            "latitude": 39.592438,
            "longitude": 2.595332,
            "amenities": [
                "Free Wifi",
                "Free parking",
                "Breakfast included",
                "Pool",
                "Heated pool"
            ],
            "providers": []
        },
        {
            "id": 4067341,
            "name": "Calatrava Mediterranean Sea House",
            "link": "https://www.tripadvisor.com/Hotel_Review-g187463-d4067341-Reviews-Calatrava_Mediterranean_Sea_House-Palma_de_Mallorca_Majorca_Balearic_Islands.html",
            "reviews": 830,
            "rating": 5,
            "price_range_usd": {
                "min": 315,
                "max": 552
            },
            "phone": "+34 971 72 81 10",
            "address": "Plaza Lloren\u00e7 Villalonga, 8, 07001 Palma de Mallorca, Majorca Spain",
            "detailed_address": {
                "street": "Plaza Lloren\u00e7 Villalonga, 8",
                "city": "Palma de Mallorca",
                "postal_code": "07001",
                "state": null,
                "country": "Spain"
            },
            "ranking": {
                "current_rank": 8,
                "total": 95
            },
            "featured_image": null,
            "latitude": 39.565735,
            "longitude": 2.65355,
            "amenities": [
                "Free Wifi",
                "Restaurant",
                "Airport transportation",
                "Room service",
                "Bar/Lounge"
            ],
            "providers": []
        },
        {
            "id": 23082585,
            "name": "Nivia Born Boutique Hotel",
            "link": "https://www.tripadvisor.com/Hotel_Review-g187463-d23082585-Reviews-Nivia_Born_Boutique_Hotel-Palma_de_Mallorca_Majorca_Balearic_Islands.html",
            "reviews": 119,
            "rating": 4.5,
            "price_range_usd": {
                "min": 255,
                "max": 421
            },
            "phone": "+34 871 71 69 20",
            "address": "Calle dels Paraires 24, 07001 Palma de Mallorca, Majorca Spain",
            "detailed_address": {
                "street": "Calle dels Paraires 24",
                "city": "Palma de Mallorca",
                "postal_code": "07001",
                "state": null,
                "country": "Spain"
            },
            "ranking": {
                "current_rank": 43,
                "total": 95
            },
            "featured_image": null,
            "latitude": 39.570133,
            "longitude": 2.647129,
            "amenities": [
                "Free Wifi",
                "Restaurant",
                "Room service",
                "Pets Allowed",
                "Bar/Lounge"
            ],
            "providers": []
        },
        {
            "id": 266124,
            "name": "Convent de la Missi\u00f3, grand luxury boutique hotel Adults Only",
            "link": "https://www.tripadvisor.com/Hotel_Review-g187463-d266124-Reviews-Convent_de_la_Missio_grand_luxury_boutique_hotel_Adults_Only-Palma_de_Mallorca_Majorca_.html",
            "reviews": 605,
            "rating": 4.5,
            "price_range_usd": {
                "min": 326,
                "max": 527
            },
            "phone": "+34 971 22 73 47",
            "address": "Carrer de la Missi\u00f3, 7A, 07003 Palma de Mallorca, Majorca Spain",
            "detailed_address": {
                "street": "Carrer de la Missi\u00f3, 7A",
                "city": "Palma de Mallorca",
                "postal_code": "07003",
                "state": null,
                "country": "Spain"
            },
            "ranking": {
                "current_rank": 11,
                "total": 95
            },
            "featured_image": null,
            "latitude": 39.57367,
            "longitude": 2.651332,
            "amenities": [
                "Free Wifi",
                "Pool",
                "Heated pool",
                "Outdoor pool",
                "Restaurant"
            ],
            "providers": []
        },
        {
            "id": 24043005,
            "name": "The Boc City",
            "link": "https://www.tripadvisor.com/Hotel_Review-g187463-d24043005-Reviews-The_Boc_City-Palma_de_Mallorca_Majorca_Balearic_Islands.html",
            "reviews": 12,
            "rating": 4,
            "price_range_usd": {
                "min": 29,
                "max": 185
            },
            "phone": "+34 683 10 12 22",
            "address": "Calle Son Pontivic n\u00ba 16, 07006 Palma de Mallorca, Majorca Spain",
            "detailed_address": {
                "street": "Calle Son Pontivic n\u00ba 16",
                "city": "Palma de Mallorca",
                "postal_code": "07006",
                "state": null,
                "country": "Spain"
            },
            "ranking": {
                "current_rank": 28,
                "total": 70
            },
            "featured_image": null,
            "latitude": 39.57004,
            "longitude": 2.662287,
            "amenities": [],
            "providers": []
        },
        {
            "id": 12146483,
            "name": "Sant Jaume Design Hotel",
            "link": "https://www.tripadvisor.com/Hotel_Review-g187463-d12146483-Reviews-Sant_Jaume_Design_Hotel-Palma_de_Mallorca_Majorca_Balearic_Islands.html",
            "reviews": 529,
            "rating": 5,
            "price_range_usd": {
                "min": 297,
                "max": 450
            },
            "phone": "+34 871 57 55 25",
            "address": "St Jaume, 22, 07012 Palma de Mallorca, Majorca Spain",
            "detailed_address": {
                "street": "St Jaume, 22",
                "city": "Palma de Mallorca",
                "postal_code": "07012",
                "state": null,
                "country": "Spain"
            },
            "ranking": {
                "current_rank": 6,
                "total": 95
            },
            "featured_image": null,
            "latitude": 39.57371,
            "longitude": 2.648127,
            "amenities": [
                "Free Wifi",
                "Pool",
                "Heated pool",
                "Outdoor pool",
                "Restaurant"
            ],
            "providers": []
        },
        {
            "id": 628863,
            "name": "Hotel Bordoy Continental Palma",
            "link": "https://www.tripadvisor.com/Hotel_Review-g187463-d628863-Reviews-Hotel_Bordoy_Continental_Palma-Palma_de_Mallorca_Majorca_Balearic_Islands.html",
            "reviews": 650,
            "rating": 4.5,
            "price_range_usd": {
                "min": 128,
                "max": 228
            },
            "phone": "+34 971 78 01 00",
            "address": "Carrer de la Ind\u00fastria, 10, 07013 Palma de Mallorca, Majorca Spain",
            "detailed_address": {
                "street": "Carrer de la Ind\u00fastria, 10",
                "city": "Palma de Mallorca",
                "postal_code": "07013",
                "state": null,
                "country": "Spain"
            },
            "ranking": {
                "current_rank": 22,
                "total": 95
            },
            "featured_image": null,
            "latitude": 39.573875,
            "longitude": 2.639786,
            "amenities": [
                "Free Wifi",
                "Restaurant",
                "Room service",
                "Bar/Lounge",
                "Fitness center"
            ],
            "providers": []
        },
        {
            "id": 483372,
            "name": "Hotel Joan Miro Museum",
            "link": "https://www.tripadvisor.com/Hotel_Review-g187463-d483372-Reviews-Hotel_Joan_Miro_Museum-Palma_de_Mallorca_Majorca_Balearic_Islands.html",
            "reviews": 421,
            "rating": 4,
            "price_range_usd": {
                "min": 95,
                "max": 172
            },
            "phone": "+34 971 40 52 01",
            "address": "Calle Bartomeu Fons 8, 07015 Palma de Mallorca, Majorca Spain",
            "detailed_address": {
                "street": "Calle Bartomeu Fons 8",
                "city": "Palma de Mallorca",
                "postal_code": "07015",
                "state": null,
                "country": "Spain"
            },
            "ranking": {
                "current_rank": 67,
                "total": 95
            },
            "featured_image": null,
            "latitude": 39.553436,
            "longitude": 2.610638,
            "amenities": [
                "Free Wifi",
                "Pool",
                "Outdoor pool",
                "Restaurant",
                "Room service"
            ],
            "providers": []
        },
        {
            "id": 23674311,
            "name": "Palma Riad",
            "link": "https://www.tripadvisor.com/Hotel_Review-g187463-d23674311-Reviews-Palma_Riad-Palma_de_Mallorca_Majorca_Balearic_Islands.html",
            "reviews": 160,
            "rating": 5,
            "price_range_usd": {
                "min": 492,
                "max": 772
            },
            "phone": "+34 871 87 12 10",
            "address": "Carrer Sant Jaume, 5, 07012 Palma de Mallorca, Majorca Spain",
            "detailed_address": {
                "street": "Carrer Sant Jaume, 5",
                "city": "Palma de Mallorca",
                "postal_code": "07012",
                "state": null,
                "country": "Spain"
            },
            "ranking": {
                "current_rank": 7,
                "total": 95
            },
            "featured_image": null,
            "latitude": 39.572063,
            "longitude": 2.647288,
            "amenities": [
                "Free Wifi",
                "Breakfast included",
                "Restaurant",
                "Airport transportation",
                "Room service"
            ],
            "providers": []
        },
        {
            "id": 15645101,
            "name": "El Llorenc Parc de la Mar",
            "link": "https://www.tripadvisor.com/Hotel_Review-g187463-d15645101-Reviews-El_Llorenc_Parc_de_la_Mar-Palma_de_Mallorca_Majorca_Balearic_Islands.html",
            "reviews": 322,
            "rating": 5,
            "price_range_usd": {
                "min": 270,
                "max": 468
            },
            "phone": "+34 971 67 77 70",
            "address": "Placa de Llorenc Villalonga 4, 07001 Palma de Mallorca, Majorca Spain",
            "detailed_address": {
                "street": "Placa de Llorenc Villalonga 4",
                "city": "Palma de Mallorca",
                "postal_code": "07001",
                "state": null,
                "country": "Spain"
            },
            "ranking": {
                "current_rank": 13,
                "total": 95
            },
            "featured_image": null,
            "latitude": 39.56571,
            "longitude": 2.653011,
            "amenities": [
                "Free Wifi",
                "Pool",
                "Outdoor pool",
                "Heated pool",
                "Restaurant"
            ],
            "providers": []
        },
        {
            "id": 15327535,
            "name": "Can Bordoy Grand House & Garden",
            "link": "https://www.tripadvisor.com/Hotel_Review-g187463-d15327535-Reviews-Can_Bordoy_Grand_House_Garden-Palma_de_Mallorca_Majorca_Balearic_Islands.html",
            "reviews": 183,
            "rating": 4.5,
            "price_range_usd": {
                "min": 352,
                "max": 679
            },
            "phone": "+34 871 87 12 02",
            "address": "Calle del Forn de la Gl\u00f2ria 14, 07012 Palma de Mallorca, Majorca Spain",
            "detailed_address": {
                "street": "Calle del Forn de la Gl\u00f2ria 14",
                "city": "Palma de Mallorca",
                "postal_code": "07012",
                "state": null,
                "country": "Spain"
            },
            "ranking": {
                "current_rank": 38,
                "total": 95
            },
            "featured_image": null,
            "latitude": 39.56956,
            "longitude": 2.644405,
            "amenities": [
                "Free Wifi",
                "Pool",
                "Outdoor pool",
                "Heated pool",
                "Restaurant"
            ],
            "providers": []
        },
        {
            "id": 232766,
            "name": "Almudaina Hotel",
            "link": "https://www.tripadvisor.com/Hotel_Review-g187463-d232766-Reviews-Almudaina_Hotel-Palma_de_Mallorca_Majorca_Balearic_Islands.html",
            "reviews": 1427,
            "rating": 4,
            "price_range_usd": {
                "min": 148,
                "max": 263
            },
            "phone": "+34 971 72 73 40",
            "address": "Avenida Jaume III 9, 07012 Palma de Mallorca, Majorca Spain",
            "detailed_address": {
                "street": "Avenida Jaume III 9",
                "city": "Palma de Mallorca",
                "postal_code": "07012",
                "state": null,
                "country": "Spain"
            },
            "ranking": {
                "current_rank": 49,
                "total": 95
            },
            "featured_image": null,
            "latitude": 39.571873,
            "longitude": 2.64533,
            "amenities": [
                "Free Wifi",
                "Restaurant",
                "Room service"
            ],
            "providers": []
        },
        {
            "id": 206941,
            "name": "Amic Colon Hotel",
            "link": "https://www.tripadvisor.com/Hotel_Review-g187463-d206941-Reviews-Amic_Colon_Hotel-Palma_de_Mallorca_Majorca_Balearic_Islands.html",
            "reviews": 322,
            "rating": 3.5,
            "price_range_usd": {
                "min": 82,
                "max": 144
            },
            "phone": "+34 902 40 06 61",
            "address": "Calle Trenta-Un de Desembre 31, 07003 Palma de Mallorca, Majorca Spain",
            "detailed_address": {
                "street": "Calle Trenta-Un de Desembre 31",
                "city": "Palma de Mallorca",
                "postal_code": "07003",
                "state": null,
                "country": "Spain"
            },
            "ranking": {
                "current_rank": 82,
                "total": 95
            },
            "featured_image": null,
            "latitude": 39.58065,
            "longitude": 2.652235,
            "amenities": [
                "Free Wifi"
            ],
            "providers": []
        },
        {
            "id": 26864850,
            "name": "Nobis Hotel Palma",
            "link": "https://www.tripadvisor.com/Hotel_Review-g187463-d26864850-Reviews-Nobis_Hotel_Palma-Palma_de_Mallorca_Majorca_Balearic_Islands.html",
            "reviews": 22,
            "rating": 4.5,
            "price_range_usd": {
                "min": 346,
                "max": 568
            },
            "phone": "+34 871 55 58 00",
            "address": "Carrer de les Caputxines 9, 07003 Palma de Mallorca, Majorca Spain",
            "detailed_address": {
                "street": "Carrer de les Caputxines 9",
                "city": "Palma de Mallorca",
                "postal_code": "07003",
                "state": null,
                "country": "Spain"
            },
            "ranking": {
                "current_rank": 84,
                "total": 95
            },
            "featured_image": null,
            "latitude": 39.572525,
            "longitude": 2.648759,
            "amenities": [
                "Free Wifi",
                "Indoor pool",
                "Restaurant",
                "Bar/Lounge",
                "Spa"
            ],
            "providers": []
        },
        {
            "id": 232767,
            "name": "Palau Sa Font",
            "link": "https://www.tripadvisor.com/Hotel_Review-g187463-d232767-Reviews-Palau_Sa_Font-Palma_de_Mallorca_Majorca_Balearic_Islands.html",
            "reviews": 472,
            "rating": 4.5,
            "price_range_usd": {
                "min": 151,
                "max": 216
            },
            "phone": "+34 971 71 22 77",
            "address": "Calle Apuntadors 38, 07012 Palma de Mallorca, Majorca Spain",
            "detailed_address": {
                "street": "Calle Apuntadors 38",
                "city": "Palma de Mallorca",
                "postal_code": "07012",
                "state": null,
                "country": "Spain"
            },
            "ranking": {
                "current_rank": 31,
                "total": 95
            },
            "featured_image": null,
            "latitude": 39.569626,
            "longitude": 2.643773,
            "amenities": [
                "Free Wifi",
                "Breakfast included",
                "Pool",
                "Outdoor pool",
                "Pets Allowed"
            ],
            "providers": []
        },
        {
            "id": 228624,
            "name": "Hesperia Ciudad de Mallorca",
            "link": "https://www.tripadvisor.com/Hotel_Review-g187463-d228624-Reviews-Hesperia_Ciudad_de_Mallorca-Palma_de_Mallorca_Majorca_Balearic_Islands.html",
            "reviews": 614,
            "rating": 4,
            "price_range_usd": {
                "min": 100,
                "max": 178
            },
            "phone": "+34 971 70 13 06",
            "address": "Calle Francisco Vidal Sureda, 24, 07015 Palma de Mallorca, Majorca Spain",
            "detailed_address": {
                "street": "Calle Francisco Vidal Sureda, 24",
                "city": "Palma de Mallorca",
                "postal_code": "07015",
                "state": null,
                "country": "Spain"
            },
            "ranking": {
                "current_rank": 72,
                "total": 95
            },
            "featured_image": null,
            "latitude": 39.555813,
            "longitude": 2.620811,
            "amenities": [
                "Free Wifi",
                "Free parking",
                "Pool",
                "Outdoor pool",
                "Restaurant"
            ],
            "providers": []
        },
        {
            "id": 23348433,
            "name": "Concepcio By Nobis",
            "link": "https://www.tripadvisor.com/Hotel_Review-g187463-d23348433-Reviews-Concepcio_By_Nobis-Palma_de_Mallorca_Majorca_Balearic_Islands.html",
            "reviews": 132,
            "rating": 5,
            "price_range_usd": {
                "min": 234,
                "max": 418
            },
            "phone": "+34 971 91 50 25",
            "address": "Carrer De La Concepcio 34, 07012 Palma de Mallorca, Majorca Spain",
            "detailed_address": {
                "street": "Carrer De La Concepcio 34",
                "city": "Palma de Mallorca",
                "postal_code": "07012",
                "state": null,
                "country": "Spain"
            },
            "ranking": {
                "current_rank": 27,
                "total": 95
            },
            "featured_image": null,
            "latitude": 39.574528,
            "longitude": 2.645673,
            "amenities": [
                "Free Wifi",
                "Breakfast included",
                "Pool",
                "Restaurant",
                "Room service"
            ],
            "providers": []
        },
        {
            "id": 1840274,
            "name": "Hostal Mar del Plata",
            "link": "https://www.tripadvisor.com/Hotel_Review-g187463-d1840274-Reviews-Hostal_Mar_del_Plata-Palma_de_Mallorca_Majorca_Balearic_Islands.html",
            "reviews": 134,
            "rating": 3,
            "price_range_usd": {
                "min": 46,
                "max": 58
            },
            "phone": "+34 971 49 17 55",
            "address": "Carretera Militar 252, 07600 Palma de Mallorca, Majorca Spain",
            "detailed_address": {
                "street": "Carretera Militar 252",
                "city": "Palma de Mallorca",
                "postal_code": "07600",
                "state": null,
                "country": "Spain"
            },
            "ranking": {
                "current_rank": 19,
                "total": 21
            },
            "featured_image": null,
            "latitude": 39.50647,
            "longitude": 2.75375,
            "amenities": [],
            "providers": []
        },
        {
            "id": 234554,
            "name": "Sheraton Mallorca Arabella Golf Hotel",
            "link": "https://www.tripadvisor.com/Hotel_Review-g187463-d234554-Reviews-Sheraton_Mallorca_Arabella_Golf_Hotel-Palma_de_Mallorca_Majorca_Balearic_Islands.html",
            "reviews": 418,
            "rating": 4.5,
            "price_range_usd": {
                "min": 265,
                "max": 408
            },
            "phone": "+34 971 78 71 00",
            "address": "Carrer De La Vinagrella Urbanization Son Vida, 07013 Palma de Mallorca, Majorca Spain",
            "detailed_address": {
                "street": "Carrer De La Vinagrella, Urbanization Son Vida",
                "city": "Palma de Mallorca",
                "postal_code": "07013",
                "state": null,
                "country": "Spain"
            },
            "ranking": {
                "current_rank": 60,
                "total": 95
            },
            "featured_image": null,
            "latitude": 39.587055,
            "longitude": 2.599927,
            "amenities": [
                "Free Wifi",
                "Free parking",
                "Breakfast included",
                "Pool",
                "Heated pool"
            ],
            "providers": []
        },
        {
            "id": 231677,
            "name": "Eurostars Marivent Hotel",
            "link": "https://www.tripadvisor.com/Hotel_Review-g187463-d231677-Reviews-Eurostars_Marivent_Hotel-Palma_de_Mallorca_Majorca_Balearic_Islands.html",
            "reviews": 154,
            "rating": 4,
            "price_range_usd": {
                "min": 94,
                "max": 189
            },
            "phone": "+34 971 40 00 77",
            "address": "Calle Dina Moore Bowden 6, 07015 Palma de Mallorca, Majorca Spain",
            "detailed_address": {
                "street": "Calle Dina Moore Bowden 6",
                "city": "Palma de Mallorca",
                "postal_code": "07015",
                "state": null,
                "country": "Spain"
            },
            "ranking": {
                "current_rank": 79,
                "total": 95
            },
            "featured_image": null,
            "latitude": 39.552605,
            "longitude": 2.611124,
            "amenities": [
                "Free Wifi",
                "Pool",
                "Outdoor pool",
                "Restaurant",
                "Airport transportation"
            ],
            "providers": []
        },
        {
            "id": 17464494,
            "name": "Hotel Antigua Palma",
            "link": "https://www.tripadvisor.com/Hotel_Review-g187463-d17464494-Reviews-Hotel_Antigua_Palma-Palma_de_Mallorca_Majorca_Balearic_Islands.html",
            "reviews": 79,
            "rating": 5,
            "price_range_usd": {
                "min": 236,
                "max": 406
            },
            "phone": "+34 971 46 04 62",
            "address": "Calle Del Sol 1, 07001 Palma de Mallorca, Majorca Spain",
            "detailed_address": {
                "street": "Calle Del Sol 1",
                "city": "Palma de Mallorca",
                "postal_code": "07001",
                "state": null,
                "country": "Spain"
            },
            "ranking": {
                "current_rank": 53,
                "total": 95
            },
            "featured_image": null,
            "latitude": 39.568226,
            "longitude": 2.651698,
            "amenities": [
                "Free Wifi",
                "Pool",
                "Bar/Lounge",
                "Spa"
            ],
            "providers": []
        },
        {
            "id": 21512313,
            "name": "Metropolitan Juka Playa",
            "link": "https://www.tripadvisor.com/Hotel_Review-g187463-d21512313-Reviews-Metropolitan_Juka_Playa-Palma_de_Mallorca_Majorca_Balearic_Islands.html",
            "reviews": 1,
            "rating": 5,
            "price_range_usd": {
                "min": 62,
                "max": 172
            },
            "phone": "+34 971 26 12 00",
            "address": "Carrer de la Mar d\u00b4Aral, 6, 07610 Palma de Mallorca, Majorca Spain",
            "detailed_address": {
                "street": "Carrer de la Mar d\u00b4Aral, 6",
                "city": "Palma de Mallorca",
                "postal_code": "07610",
                "state": null,
                "country": "Spain"
            },
            "ranking": {
                "current_rank": 16,
                "total": 21
            },
            "featured_image": null,
            "latitude": 39.522903,
            "longitude": 2.746485,
            "amenities": [
                "Pool",
                "Restaurant",
                "Bar/Lounge",
                "Fitness center"
            ],
            "providers": []
        },
        {
            "id": 272775,
            "name": "Hotel Araxa",
            "link": "https://www.tripadvisor.com/Hotel_Review-g187463-d272775-Reviews-Hotel_Araxa-Palma_de_Mallorca_Majorca_Balearic_Islands.html",
            "reviews": 542,
            "rating": 4,
            "price_range_usd": {
                "min": 101,
                "max": 169
            },
            "phone": "+34 971 73 16 40",
            "address": "Calle Pilar Juncosa 22, 07014 Palma de Mallorca, Majorca Spain",
            "detailed_address": {
                "street": "Calle Pilar Juncosa 22",
                "city": "Palma de Mallorca",
                "postal_code": "07014",
                "state": null,
                "country": "Spain"
            },
            "ranking": {
                "current_rank": 54,
                "total": 95
            },
            "featured_image": null,
            "latitude": 39.569736,
            "longitude": 2.625721,
            "amenities": [
                "Free Wifi",
                "Pool",
                "Outdoor pool",
                "Restaurant",
                "Room service"
            ],
            "providers": []
        },
        {
            "id": 231673,
            "name": "Hotel Artmadams",
            "link": "https://www.tripadvisor.com/Hotel_Review-g187463-d231673-Reviews-Hotel_Artmadams-Palma_de_Mallorca_Majorca_Balearic_Islands.html",
            "reviews": 543,
            "rating": 4,
            "price_range_usd": {
                "min": 110,
                "max": 209
            },
            "phone": "+34 971 22 21 21",
            "address": "Calle del Marques de la Senia 34, 07014 Palma de Mallorca, Majorca Spain",
            "detailed_address": {
                "street": "Calle del Marques de la Senia 34",
                "city": "Palma de Mallorca",
                "postal_code": "07014",
                "state": null,
                "country": "Spain"
            },
            "ranking": {
                "current_rank": 70,
                "total": 95
            },
            "featured_image": null,
            "latitude": 39.568787,
            "longitude": 2.630266,
            "amenities": [
                "Free Wifi",
                "Pool",
                "Heated pool",
                "Indoor pool",
                "Outdoor pool"
            ],
            "providers": []
        },
        {
            "id": 10062114,
            "name": "BO Hotel Palma",
            "link": "https://www.tripadvisor.com/Hotel_Review-g187463-d10062114-Reviews-BO_Hotel_Palma-Palma_de_Mallorca_Majorca_Balearic_Islands.html",
            "reviews": 211,
            "rating": 4.5,
            "price_range_usd": {
                "min": 193,
                "max": 320
            },
            "phone": "+34 684 31 98 29",
            "address": "Carrer de Jaume Ferrer, 2, 07012 Palma de Mallorca, Majorca Spain",
            "detailed_address": {
                "street": "Carrer de Jaume Ferrer, 2",
                "city": "Palma de Mallorca",
                "postal_code": "07012",
                "state": null,
                "country": "Spain"
            },
            "ranking": {
                "current_rank": 19,
                "total": 95
            },
            "featured_image": null,
            "latitude": 39.568695,
            "longitude": 2.644766,
            "amenities": [
                "Free Wifi",
                "Pool",
                "Restaurant",
                "Airport transportation",
                "Room service"
            ],
            "providers": []
        },
        {
            "id": 12978599,
            "name": "Icon Roset\u00f3",
            "link": "https://www.tripadvisor.com/Hotel_Review-g187463-d12978599-Reviews-Icon_Roseto-Palma_de_Mallorca_Majorca_Balearic_Islands.html",
            "reviews": 638,
            "rating": 4.5,
            "price_range_usd": {
                "min": 177,
                "max": 330
            },
            "phone": "+34 971 21 27 00",
            "address": "Carrer de Can Campaner, 6, 07003 Palma de Mallorca, Majorca Spain",
            "detailed_address": {
                "street": "Carrer de Can Campaner, 6",
                "city": "Palma de Mallorca",
                "postal_code": "07003",
                "state": null,
                "country": "Spain"
            },
            "ranking": {
                "current_rank": 21,
                "total": 95
            },
            "featured_image": null,
            "latitude": 39.572083,
            "longitude": 2.649495,
            "amenities": [
                "Free Wifi",
                "Restaurant",
                "Room service",
                "Pets Allowed",
                "Bar/Lounge"
            ],
            "providers": []
        },
        {
            "id": 20109445,
            "name": "Hotel Nou Baleares",
            "link": "https://www.tripadvisor.com/Hotel_Review-g187463-d20109445-Reviews-Hotel_Nou_Baleares-Palma_de_Mallorca_Majorca_Balearic_Islands.html",
            "reviews": 134,
            "rating": 4.5,
            "price_range_usd": {
                "min": 115,
                "max": 199
            },
            "phone": "+34 971 27 54 47",
            "address": "Pla\u00e7a Francesc Garc\u00eda I Orell, 8, 07006 Palma de Mallorca, Majorca Spain",
            "detailed_address": {
                "street": "Pla\u00e7a Francesc Garc\u00eda I Orell, 8",
                "city": "Palma de Mallorca",
                "postal_code": "07006",
                "state": null,
                "country": "Spain"
            },
            "ranking": {
                "current_rank": 47,
                "total": 95
            },
            "featured_image": null,
            "latitude": 39.573196,
            "longitude": 2.661077,
            "amenities": [
                "Free Wifi",
                "Restaurant",
                "Bar/Lounge",
                "Fitness center"
            ],
            "providers": []
        },
        {
            "id": 266980,
            "name": "Hotel Sercotel Zurbar\u00e1n",
            "link": "https://www.tripadvisor.com/Hotel_Review-g187463-d266980-Reviews-Hotel_Sercotel_Zurbaran-Palma_de_Mallorca_Majorca_Balearic_Islands.html",
            "reviews": 281,
            "rating": 4,
            "price_range_usd": {
                "min": 125,
                "max": 185
            },
            "phone": "+34 971 22 17 71",
            "address": "Carrer de Josep Villalonga, 16, 07014 Palma de Mallorca, Majorca Spain",
            "detailed_address": {
                "street": "Carrer de Josep Villalonga, 16",
                "city": "Palma de Mallorca",
                "postal_code": "07014",
                "state": null,
                "country": "Spain"
            },
            "ranking": {
                "current_rank": 74,
                "total": 95
            },
            "featured_image": null,
            "latitude": 39.56449,
            "longitude": 2.624496,
            "amenities": [
                "Free Wifi",
                "Bar/Lounge"
            ],
            "providers": []
        }
    ]
}